[
{"country":"MX","name":"Sain Alto","_id":3988251,"coord":{"lon":-103.25,"lat":23.58333}},
{"country":"DE","name":"Sainbach","_id":2842341,"coord":{"lon":11.1,"lat":48.51667}},
{"country":"FR","name":"Sain-Bel","_id":2981953,"coord":{"lon":4.59815,"lat":45.810699}},
{"country":"FR","name":"Sain-Bel","_id":6441739,"coord":{"lon":4.6,"lat":45.816669}},
{"country":"DE","name":"Sainerholz","_id":2842340,"coord":{"lon":7.85,"lat":50.51667}},
{"country":"TH","name":"Sai Ngam","_id":1150854,"coord":{"lon":99.888428,"lat":16.46862}},
{"country":"FR","name":"Sainghin-en-Melantois","_id":2981950,"coord":{"lon":3.16619,"lat":50.58836}},
{"country":"FR","name":"Sainghin-en-Mélantois","_id":6438461,"coord":{"lon":3.16667,"lat":50.583328}},
{"country":"FR","name":"Sainghin-en-Weppes","_id":2981949,"coord":{"lon":2.89804,"lat":50.564072}},
{"country":"FR","name":"Sainghin-en-Weppes","_id":6438462,"coord":{"lon":2.9015,"lat":50.562901}},
{"country":"TH","name":"Sai Noi","_id":1606837,"coord":{"lon":100.312088,"lat":13.97915}},
{"country":"FR","name":"Sains-du-Nord","_id":2981943,"coord":{"lon":4.00898,"lat":50.093769}},
{"country":"FR","name":"Sains-du-Nord","_id":6438463,"coord":{"lon":4,"lat":50.099998}},
{"country":"FR","name":"Sains-en-Amienois","_id":2981942,"coord":{"lon":2.31862,"lat":49.817162}},
{"country":"FR","name":"Sains-en-Amiénois","_id":6444725,"coord":{"lon":2.31667,"lat":49.816669}},
{"country":"FR","name":"Sains-en-Gohelle","_id":2981941,"coord":{"lon":2.68301,"lat":50.445122}},
{"country":"FR","name":"Sains-en-Gohelle","_id":6439851,"coord":{"lon":2.68333,"lat":50.450001}},
{"country":"FR","name":"Saint-Abit","_id":2981934,"coord":{"lon":-0.3,"lat":43.200001}},
{"country":"FR","name":"Saint-Abit","_id":6440581,"coord":{"lon":-0.3,"lat":43.200001}},
{"country":"FR","name":"Saint-Affrique","_id":2981925,"coord":{"lon":2.88915,"lat":43.95575}},
{"country":"FR","name":"Saint-Affrique","_id":6614490,"coord":{"lon":2.88872,"lat":43.95575}},
{"country":"FR","name":"Saint-Agathon","_id":2981923,"coord":{"lon":-3.10525,"lat":48.55867}},
{"country":"FR","name":"Saint-Agathon","_id":6429114,"coord":{"lon":-3.1,"lat":48.566669}},
{"country":"FR","name":"Saint-Agnan-le-Malherbe","_id":2981912,"coord":{"lon":-0.57905,"lat":49.043461}},
{"country":"FR","name":"Saint-Agnan-le-Malherbe","_id":6427412,"coord":{"lon":-0.58333,"lat":49.049999}},
{"country":"FR","name":"Saint-Agnan-sur-Erre","_id":2981911,"coord":{"lon":0.72666,"lat":48.319279}},
{"country":"FR","name":"Saint-Agnan-sur-Erre","_id":6439221,"coord":{"lon":0.73333,"lat":48.316669}},
{"country":"FR","name":"Saint-Agnant-de-Versillat","_id":2981907,"coord":{"lon":1.50962,"lat":46.278}},
{"country":"FR","name":"Saint-Agnant-de-Versillat","_id":6429258,"coord":{"lon":1.51667,"lat":46.283329}},
{"country":"FR","name":"Saint-Agnant","_id":2981908,"coord":{"lon":-0.96119,"lat":45.873539}},
{"country":"FR","name":"Saint-Agnant","_id":6428049,"coord":{"lon":-0.96667,"lat":45.866669}},
{"country":"GB","name":"Saint Agnes","_id":2638870,"coord":{"lon":-5.20452,"lat":50.313629}},
{"country":"FR","name":"Saint-Agnet","_id":2981904,"coord":{"lon":-0.27133,"lat":43.613831}},
{"country":"FR","name":"Saint-Agnet","_id":6612528,"coord":{"lon":-0.26667,"lat":43.616669}},
{"country":"FR","name":"Saint-Agoulin","_id":2981902,"coord":{"lon":3.13591,"lat":46.040279}},
{"country":"FR","name":"Saint-Agoulin","_id":6440152,"coord":{"lon":3.13333,"lat":46.033329}},
{"country":"FR","name":"Saint-Agreve","_id":2981901,"coord":{"lon":4.39375,"lat":45.00993}},
{"country":"FR","name":"Saint-Agrève","_id":6425777,"coord":{"lon":4.4,"lat":45.01667}},
{"country":"FR","name":"Saint-Aignan-de-Cramesnil","_id":2981891,"coord":{"lon":-0.27801,"lat":49.07933}},
{"country":"FR","name":"Saint-Aignan-de-Cramesnil","_id":6427413,"coord":{"lon":-0.26667,"lat":49.083328}},
{"country":"FR","name":"Saint-Aignan","_id":2981898,"coord":{"lon":1.37614,"lat":47.268921}},
{"country":"FR","name":"Saint-Aignan","_id":6454131,"coord":{"lon":1.38333,"lat":47.26667}},
{"country":"FR","name":"Saint-Aigulin","_id":2981882,"coord":{"lon":-0.01667,"lat":45.150002}},
{"country":"FR","name":"Saint-Aigulin","_id":6612311,"coord":{"lon":-0.01667,"lat":45.150002}},
{"country":"FR","name":"Saint-Alban-de-Roche","_id":2981873,"coord":{"lon":5.22304,"lat":45.595261}},
{"country":"FR","name":"Saint-Alban-de-Roche","_id":6433316,"coord":{"lon":5.23333,"lat":45.599998}},
{"country":"FR","name":"Saint-Alban","_id":2981876,"coord":{"lon":-2.54013,"lat":48.556301}},
{"country":"FR","name":"Saint-Alban","_id":2981879,"coord":{"lon":1.4102,"lat":43.692699}},
{"country":"CA","name":"Saint-Alban","_id":6137345,"coord":{"lon":-72.082397,"lat":46.716751}},
{"country":"FR","name":"Saint-Alban","_id":6429115,"coord":{"lon":-2.55,"lat":48.566669}},
{"country":"FR","name":"Saint-Alban","_id":6431793,"coord":{"lon":1.41667,"lat":43.700001}},
{"country":"FR","name":"Saint-Alban-Leysse","_id":2981878,"coord":{"lon":5.95,"lat":45.583328}},
{"country":"FR","name":"Saint-Alban-Leysse","_id":6617585,"coord":{"lon":5.9588,"lat":45.580502}},
{"country":"GB","name":"Saint Albans","_id":2638867,"coord":{"lon":-0.33333,"lat":51.75}},
{"country":"US","name":"Saint Albans","_id":4820938,"coord":{"lon":-81.836243,"lat":38.385651}},
{"country":"US","name":"Saint Albans","_id":4977288,"coord":{"lon":-69.410049,"lat":44.910061}},
{"country":"US","name":"Saint Albans","_id":5240569,"coord":{"lon":-73.083191,"lat":44.810879}},
{"country":"FR","name":"Saint-Alban-sur-Limagnole","_id":2981865,"coord":{"lon":3.38793,"lat":44.780998}},
{"country":"FR","name":"Saint-Alban-sur-Limagnole","_id":6435139,"coord":{"lon":3.38333,"lat":44.783329}},
{"country":"FR","name":"Saint-Alexandre","_id":2981863,"coord":{"lon":4.62081,"lat":44.227409}},
{"country":"FR","name":"Saint-Alexandre","_id":6431379,"coord":{"lon":4.6214,"lat":44.227798}},
{"country":"CA","name":"Saint-Alexis-des-Monts","_id":6137361,"coord":{"lon":-73.132439,"lat":46.466759}},
{"country":"FR","name":"Saint-Alyre-d'Arlanc","_id":2981856,"coord":{"lon":3.63845,"lat":45.369801}},
{"country":"FR","name":"Saint-Alyre-d'Arlanc","_id":6440153,"coord":{"lon":3.63333,"lat":45.366669}},
{"country":"FR","name":"Saint-Amand-de-Vergt","_id":2981844,"coord":{"lon":0.69755,"lat":44.988152}},
{"country":"FR","name":"Saint-Amand-de-Vergt","_id":6429506,"coord":{"lon":0.7,"lat":44.98333}},
{"country":"FR","name":"Saint-Amand-en-Puisaye","_id":2981843,"coord":{"lon":3.074,"lat":47.52914}},
{"country":"FR","name":"Saint-Amand-en-Puisaye","_id":6438061,"coord":{"lon":3.0752,"lat":47.528999}},
{"country":"FR","name":"Saint-Amand","_id":2981851,"coord":{"lon":-0.96491,"lat":49.043381}},
{"country":"FR","name":"Saint-Amand","_id":6435562,"coord":{"lon":-0.96667,"lat":49.049999}},
{"country":"FR","name":"Saint-Amand-les-Eaux","_id":2981839,"coord":{"lon":3.43076,"lat":50.447182}},
{"country":"FR","name":"Saint-Amand-les-Eaux","_id":6438464,"coord":{"lon":3.428,"lat":50.447701}},
{"country":"FR","name":"Saint-Amand-Longpre","_id":2981845,"coord":{"lon":1.01667,"lat":47.683331}},
{"country":"FR","name":"Saint-Amand-Longpré","_id":6616749,"coord":{"lon":1.0169,"lat":47.690102}},
{"country":"FR","name":"Saint-Amand-Montrond","_id":2981837,"coord":{"lon":2.51667,"lat":46.716671}},
{"country":"FR","name":"Saint-Amand-Montrond","_id":6614431,"coord":{"lon":2.5055,"lat":46.722599}},
{"country":"FR","name":"Saint-Amand-sur-Sevre","_id":2981833,"coord":{"lon":-0.79441,"lat":46.869049}},
{"country":"FR","name":"Saint-Amand-sur-Sèvre","_id":6615116,"coord":{"lon":-0.8,"lat":46.866669}},
{"country":"FR","name":"Saint-Amans-Soult","_id":2981825,"coord":{"lon":2.49076,"lat":43.476971}},
{"country":"FR","name":"Saint-Amans-Soult","_id":6444932,"coord":{"lon":2.5,"lat":43.48333}},
{"country":"FR","name":"Saint-Amans-Valtoret","_id":2981824,"coord":{"lon":2.49095,"lat":43.480709}},
{"country":"FR","name":"Saint-Amans-Valtoret","_id":6444933,"coord":{"lon":2.48333,"lat":43.48333}},
{"country":"FR","name":"Saint-Amant-de-Boixe","_id":2981822,"coord":{"lon":0.13524,"lat":45.797901}},
{"country":"FR","name":"Saint-Amant-de-Boixe","_id":6427819,"coord":{"lon":0.13333,"lat":45.799999}},
{"country":"FR","name":"Saint-Amant-Roche-Savine","_id":2981817,"coord":{"lon":3.63193,"lat":45.573971}},
{"country":"FR","name":"Saint-Amant-Roche-Savine","_id":6440155,"coord":{"lon":3.63333,"lat":45.566669}},
{"country":"FR","name":"Saint-Amant-Tallende","_id":2981816,"coord":{"lon":3.1101,"lat":45.668388}},
{"country":"FR","name":"Saint-Amant-Tallende","_id":6440156,"coord":{"lon":3.11667,"lat":45.666672}},
{"country":"FR","name":"Saint-Amarin","_id":2981815,"coord":{"lon":7.03193,"lat":47.873348}},
{"country":"FR","name":"Saint-Amarin","_id":6441601,"coord":{"lon":7.0316,"lat":47.871899}},
{"country":"CA","name":"Saint-Ambroise","_id":6137381,"coord":{"lon":-71.332382,"lat":48.550091}},
{"country":"CA","name":"Saint-Ambroise","_id":6137384,"coord":{"lon":-71.315781,"lat":48.550091}},
{"country":"FR","name":"Saint-Ambroix","_id":2981810,"coord":{"lon":4.19833,"lat":44.25893}},
{"country":"FR","name":"Saint-Ambroix","_id":6431380,"coord":{"lon":4.1984,"lat":44.260201}},
{"country":"FR","name":"Saint-Ame","_id":2981808,"coord":{"lon":6.66416,"lat":48.02388}},
{"country":"FR","name":"Saint-Amé","_id":6445722,"coord":{"lon":6.66667,"lat":48.033329}},
{"country":"FR","name":"Saint-Amour","_id":2981805,"coord":{"lon":5.34416,"lat":46.436378}},
{"country":"FR","name":"Saint-Amour","_id":6454110,"coord":{"lon":5.35,"lat":46.433331}},
{"country":"FR","name":"Saint-Andeol-le-Chateau","_id":2981793,"coord":{"lon":4.69495,"lat":45.587029}},
{"country":"FR","name":"Saint-Andéol-le-Château","_id":6441744,"coord":{"lon":4.7,"lat":45.583328}},
{"country":"FR","name":"Saint-Andiol","_id":2981791,"coord":{"lon":4.94453,"lat":43.834839}},
{"country":"FR","name":"Saint-Andiol","_id":6447164,"coord":{"lon":4.95,"lat":43.833328}},
{"country":"CA","name":"Saint-Andre-Avellin","_id":6137404,"coord":{"lon":-75.065987,"lat":45.716801}},
{"country":"FR","name":"Saint-André-d'Allas","_id":2981770,"coord":{"lon":1.18333,"lat":44.883331}},
{"country":"FR","name":"Saint-André-d'Allas","_id":6429507,"coord":{"lon":1.18333,"lat":44.883331}},
{"country":"FR","name":"Saint-André-de-Bohon","_id":2981766,"coord":{"lon":-1.25226,"lat":49.235001}},
{"country":"FR","name":"Saint-André-de-Bohon","_id":6435563,"coord":{"lon":-1.25,"lat":49.23333}},
{"country":"FR","name":"Saint-André-de-Briouze","_id":2981765,"coord":{"lon":-0.32772,"lat":48.728802}},
{"country":"FR","name":"Saint-André-de-Briouze","_id":6439223,"coord":{"lon":-0.3,"lat":48.73333}},
{"country":"FR","name":"Saint-Andre-de-Corcy","_id":2981762,"coord":{"lon":4.95166,"lat":45.9259}},
{"country":"FR","name":"Saint-André-de-Corcy","_id":6424649,"coord":{"lon":4.95,"lat":45.916672}},
{"country":"FR","name":"Saint-André-de-Double","_id":2981759,"coord":{"lon":0.31667,"lat":45.150002}},
{"country":"FR","name":"Saint-André-de-Double","_id":6429508,"coord":{"lon":0.31667,"lat":45.150002}},
{"country":"FR","name":"Saint-Andre-de-la-Marche","_id":2981758,"coord":{"lon":-0.99441,"lat":47.099522}},
{"country":"FR","name":"Saint-André-de-la-Marche","_id":6435274,"coord":{"lon":-1,"lat":47.099998}},
{"country":"FR","name":"Saint-Andre-de-la-Roche","_id":2981783,"coord":{"lon":7.28333,"lat":43.73333}},
{"country":"FR","name":"Saint-André-de-la-Roche","_id":6618146,"coord":{"lon":7.2881,"lat":43.740002}},
{"country":"FR","name":"Saint-André-de-l'Épine","_id":2981756,"coord":{"lon":-1.01261,"lat":49.138802}},
{"country":"FR","name":"Saint-André-de-l'Épine","_id":6435564,"coord":{"lon":-1,"lat":49.133331}},
{"country":"FR","name":"Saint-André-de-Messei","_id":2981751,"coord":{"lon":-0.52333,"lat":48.694759}},
{"country":"FR","name":"Saint-André-de-Messei","_id":6439224,"coord":{"lon":-0.52333,"lat":48.694759}},
{"country":"FR","name":"Saint-Andre-de-Sangonis","_id":2981746,"coord":{"lon":3.50209,"lat":43.64753}},
{"country":"FR","name":"Saint-André-de-Sangonis","_id":6432614,"coord":{"lon":3.5,"lat":43.650002}},
{"country":"FR","name":"Saint-Andre-des-Eaux","_id":2981745,"coord":{"lon":-2.31105,"lat":47.31461}},
{"country":"FR","name":"Saint-André-des-Eaux","_id":6434508,"coord":{"lon":-2.31667,"lat":47.316669}},
{"country":"FR","name":"Saint-Andre-de-Seignanx","_id":2981743,"coord":{"lon":-1.35183,"lat":43.557999}},
{"country":"FR","name":"Saint-André-de-Seignanx","_id":6616737,"coord":{"lon":-1.351,"lat":43.557301}},
{"country":"FR","name":"Saint-André-d'Hébertot","_id":2981739,"coord":{"lon":0.27473,"lat":49.312302}},
{"country":"FR","name":"Saint-André-d'Hébertot","_id":6427414,"coord":{"lon":0.28333,"lat":49.316669}},
{"country":"FR","name":"Saint-André-du-Bois","_id":2981735,"coord":{"lon":-0.18234,"lat":44.604198}},
{"country":"FR","name":"Saint-André-du-Bois","_id":6432364,"coord":{"lon":-0.2,"lat":44.599998}},
{"country":"CA","name":"Saint-André","_id":6354900,"coord":{"lon":-69.72229,"lat":47.678329}},
{"country":"FR","name":"Saint-André","_id":6618450,"coord":{"lon":2.97187,"lat":42.5494}},
{"country":"RE","name":"Saint-André","_id":6690293,"coord":{"lon":55.650002,"lat":-20.950001}},
{"country":"RE","name":"Saint-Andre","_id":935268,"coord":{"lon":55.650311,"lat":-20.963329}},
{"country":"FR","name":"Saint-André-le-Coq","_id":2981721,"coord":{"lon":3.3099,"lat":45.964378}},
{"country":"FR","name":"Saint-André-le-Coq","_id":6440157,"coord":{"lon":3.31667,"lat":45.966671}},
{"country":"FR","name":"Saint-Andre-le-Gaz","_id":2981719,"coord":{"lon":5.53503,"lat":45.549431}},
{"country":"FR","name":"Saint-André-le-Gaz","_id":6433320,"coord":{"lon":5.53333,"lat":45.549999}},
{"country":"FR","name":"Saint-Andre-le-Puy","_id":2981718,"coord":{"lon":4.25744,"lat":45.644581}},
{"country":"FR","name":"Saint-André-le-Puy","_id":6434243,"coord":{"lon":4.26667,"lat":45.650002}},
{"country":"FR","name":"Saint-Andre-les-Vergers","_id":2981716,"coord":{"lon":4.0521,"lat":48.285271}},
{"country":"FR","name":"Saint-André-les-Vergers","_id":6426546,"coord":{"lon":4.05,"lat":48.283329}},
{"country":"FR","name":"Saint-Andre-lez-Lille","_id":2981779,"coord":{"lon":3.05,"lat":50.666672}},
{"country":"FR","name":"Saint-André-lez-Lille","_id":6617204,"coord":{"lon":3.0446,"lat":50.660099}},
{"country":"FR","name":"Saint-Andre-sur-Orne","_id":2981714,"coord":{"lon":-0.38227,"lat":49.117409}},
{"country":"FR","name":"Saint-André-sur-Orne","_id":6427415,"coord":{"lon":-0.38333,"lat":49.116669}},
{"country":"FR","name":"Saint-Andre-sur-Vieux-Jonc","_id":2981712,"coord":{"lon":5.06667,"lat":46.150002}},
{"country":"FR","name":"Saint-André-sur-Vieux-Jonc","_id":6424652,"coord":{"lon":5.06667,"lat":46.150002}},
{"country":"FR","name":"Saint-Andre-Treize-Voies","_id":2981711,"coord":{"lon":-1.41274,"lat":46.933689}},
{"country":"FR","name":"Saint-André-Treize-Voies","_id":6445175,"coord":{"lon":-1.41667,"lat":46.933331}},
{"country":"TT","name":"Saint Andrew","_id":3573804,"coord":{"lon":-61.466671,"lat":10.41667}},
{"country":"DM","name":"Saint Andrew","_id":3575632,"coord":{"lon":-61.366669,"lat":15.56667}},
{"country":"GD","name":"Saint Andrew","_id":3579938,"coord":{"lon":-61.650002,"lat":12.11667}},
{"country":"GB","name":"Saint Andrews","_id":2638864,"coord":{"lon":-2.79902,"lat":56.338711}},
{"country":"US","name":"Saint Andrews","_id":4593724,"coord":{"lon":-81.129257,"lat":34.045429}},
{"country":"US","name":"Saint Andrews","_id":4597499,"coord":{"lon":-81.103149,"lat":34.048759}},
{"country":"CA","name":"Saint Andrews","_id":6137411,"coord":{"lon":-67.061691,"lat":45.084541}},
{"country":"FR","name":"Saint-Angel","_id":2981697,"coord":{"lon":2.93479,"lat":45.99485}},
{"country":"FR","name":"Saint-Angel","_id":6617330,"coord":{"lon":2.9348,"lat":45.9963}},
{"country":"CA","name":"Saint-Anicet","_id":6137417,"coord":{"lon":-74.349251,"lat":45.133389}},
{"country":"GG","name":"Saint Anne","_id":3042289,"coord":{"lon":-2.20417,"lat":49.715}},
{"country":"US","name":"Saint Anne","_id":4908543,"coord":{"lon":-87.713921,"lat":41.025028}},
{"country":"US","name":"Saint Ann","_id":4406783,"coord":{"lon":-90.383171,"lat":38.727268}},
{"country":"JM","name":"Saint Anns Bay","_id":3488713,"coord":{"lon":-77.200981,"lat":18.43581}},
{"country":"CA","name":"Saint-Anselme","_id":6945984,"coord":{"lon":-70.973396,"lat":46.629219}},
{"country":"US","name":"Saint Ansgar","_id":4874045,"coord":{"lon":-92.918808,"lat":43.3783}},
{"country":"US","name":"Saint Anthony","_id":5044290,"coord":{"lon":-93.218002,"lat":45.020519}},
{"country":"US","name":"Saint Anthony","_id":5606187,"coord":{"lon":-111.682182,"lat":43.966301}},
{"country":"FR","name":"Saint-Antoine-Cumond","_id":2981675,"coord":{"lon":0.2,"lat":45.26667}},
{"country":"FR","name":"Saint-Antoine-Cumond","_id":6429509,"coord":{"lon":0.1988,"lat":45.2565}},
{"country":"FR","name":"Saint-Antoine-d'Auberoche","_id":2981674,"coord":{"lon":0.94399,"lat":45.141899}},
{"country":"FR","name":"Saint-Antoine-d'Auberoche","_id":6429510,"coord":{"lon":0.95,"lat":45.150002}},
{"country":"FR","name":"Saint-Antoine-de-Breuilh","_id":2981673,"coord":{"lon":0.16667,"lat":44.833328}},
{"country":"FR","name":"Saint-Antoine-de-Breuilh","_id":6612369,"coord":{"lon":0.1556,"lat":44.844299}},
{"country":"FR","name":"Saint-Antoine-de-Ficalba","_id":2981672,"coord":{"lon":0.71821,"lat":44.332142}},
{"country":"FR","name":"Saint-Antoine-de-Ficalba","_id":6435048,"coord":{"lon":0.71667,"lat":44.333328}},
{"country":"CA","name":"Saint-Antoine-des-Laurentides","_id":6137440,"coord":{"lon":-73.988602,"lat":45.76038}},
{"country":"CA","name":"Saint-Antoine-de-Tilly","_id":8224455,"coord":{"lon":-71.573349,"lat":46.66346}},
{"country":"FR","name":"Saint-Antoine-du-Queyret","_id":2981670,"coord":{"lon":0.00996,"lat":44.763699}},
{"country":"FR","name":"Saint-Antoine-du-Queyret","_id":6432367,"coord":{"lon":0.01667,"lat":44.76667}},
{"country":"FR","name":"Saint-Antoine-du-Rocher","_id":2981669,"coord":{"lon":0.62997,"lat":47.496769}},
{"country":"FR","name":"Saint-Antoine-du-Rocher","_id":6433098,"coord":{"lon":0.63333,"lat":47.5}},
{"country":"CA","name":"Saint-Antoine","_id":6137422,"coord":{"lon":-64.749847,"lat":46.362942}},
{"country":"FR","name":"Saint-Antoine-lAbbaye","_id":2981685,"coord":{"lon":5.21667,"lat":45.166672}},
{"country":"FR","name":"Saint-Antoine-l'Abbaye","_id":6616669,"coord":{"lon":5.2172,"lat":45.174599}},
{"country":"FR","name":"Saint-Antoine-sur-l'Isle","_id":2981666,"coord":{"lon":0.05,"lat":45.033329}},
{"country":"FR","name":"Saint-Antoine-sur-l'Isle","_id":6612485,"coord":{"lon":0.05,"lat":45.033329}},
{"country":"FR","name":"Saint-Apollinaire","_id":2981655,"coord":{"lon":5.08333,"lat":47.333328}},
{"country":"FR","name":"Saint-Apollinaire","_id":6428845,"coord":{"lon":5.08333,"lat":47.333328}},
{"country":"FR","name":"Saint-Armel","_id":2981639,"coord":{"lon":-1.59152,"lat":48.01305}},
{"country":"FR","name":"Saint-Armel","_id":6613771,"coord":{"lon":-1.58333,"lat":48.01667}},
{"country":"FR","name":"Saint-Armou","_id":2981638,"coord":{"lon":-0.3,"lat":43.416672}},
{"country":"FR","name":"Saint-Armou","_id":6440582,"coord":{"lon":-0.3,"lat":43.416672}},
{"country":"FR","name":"Saint-Arnoult-en-Yvelines","_id":2981629,"coord":{"lon":1.9395,"lat":48.57111}},
{"country":"FR","name":"Saint-Arnoult-en-Yvelines","_id":6444065,"coord":{"lon":1.93333,"lat":48.566669}},
{"country":"FR","name":"Saint-Arnoult","_id":2981634,"coord":{"lon":0.67117,"lat":49.52676}},
{"country":"FR","name":"Saint-Arnoult","_id":2981635,"coord":{"lon":0.0904,"lat":49.337559}},
{"country":"FR","name":"Saint-Arnoult","_id":6427416,"coord":{"lon":0.08333,"lat":49.333328}},
{"country":"FR","name":"Saint-Arnoult","_id":6443427,"coord":{"lon":0.66667,"lat":49.533329}},
{"country":"GB","name":"Saint Asaph","_id":2638855,"coord":{"lon":-3.45,"lat":53.26667}},
{"country":"FR","name":"Saint-Astier","_id":2981623,"coord":{"lon":0.52898,"lat":45.145821}},
{"country":"FR","name":"Saint-Astier","_id":6616180,"coord":{"lon":0.5291,"lat":45.145802}},
{"country":"FR","name":"Saint-Aubert","_id":2981615,"coord":{"lon":3.41727,"lat":50.20805}},
{"country":"FR","name":"Saint-Aubert","_id":6438465,"coord":{"lon":3.41667,"lat":50.216671}},
{"country":"FR","name":"Saint-Aubin-d'Appenai","_id":2981593,"coord":{"lon":0.33881,"lat":48.536251}},
{"country":"FR","name":"Saint-Aubin-d'Appenai","_id":6439227,"coord":{"lon":0.33333,"lat":48.533329}},
{"country":"FR","name":"Saint-Aubin-d'Arquenay","_id":2981592,"coord":{"lon":-0.28972,"lat":49.263081}},
{"country":"FR","name":"Saint-Aubin-d'Arquenay","_id":6427417,"coord":{"lon":-0.28333,"lat":49.26667}},
{"country":"FR","name":"Saint-Aubin-de-Blaye","_id":2981589,"coord":{"lon":-0.55997,"lat":45.267262}},
{"country":"FR","name":"Saint-Aubin-de-Blaye","_id":6432369,"coord":{"lon":-0.56667,"lat":45.26667}},
{"country":"FR","name":"Saint-Aubin-de-Bonneval","_id":2981588,"coord":{"lon":0.37877,"lat":48.941219}},
{"country":"FR","name":"Saint-Aubin-de-Bonneval","_id":6439228,"coord":{"lon":0.37834,"lat":48.94128}},
{"country":"FR","name":"Saint-Aubin-de-Branne","_id":2981587,"coord":{"lon":-0.17173,"lat":44.808609}},
{"country":"FR","name":"Saint-Aubin-de-Branne","_id":6432370,"coord":{"lon":-0.16667,"lat":44.799999}},
{"country":"FR","name":"Saint-Aubin-de-Cadelech","_id":2981586,"coord":{"lon":0.48079,"lat":44.693031}},
{"country":"FR","name":"Saint-Aubin-de-Cadelech","_id":6612370,"coord":{"lon":0.5,"lat":44.683331}},
{"country":"FR","name":"Saint-Aubin-de-Courteraie","_id":2981585,"coord":{"lon":0.43952,"lat":48.61002}},
{"country":"FR","name":"Saint-Aubin-de-Courteraie","_id":6439229,"coord":{"lon":0.43333,"lat":48.616669}},
{"country":"FR","name":"Saint-Aubin-de-Medoc","_id":2981579,"coord":{"lon":-0.71667,"lat":44.75}},
{"country":"FR","name":"Saint-Aubin-de-Médoc","_id":6432371,"coord":{"lon":-0.7246,"lat":44.9118}},
{"country":"FR","name":"Saint-Aubin-des-Bois","_id":2981577,"coord":{"lon":1.35784,"lat":48.465481}},
{"country":"FR","name":"Saint-Aubin-des-Bois","_id":6430863,"coord":{"lon":1.36667,"lat":48.466671}},
{"country":"FR","name":"Saint-Aubin-des-Chateaux","_id":2981574,"coord":{"lon":-1.48876,"lat":47.72047}},
{"country":"FR","name":"Saint-Aubin-des-Châteaux","_id":6434509,"coord":{"lon":-1.48333,"lat":47.716671}},
{"country":"FR","name":"Saint-Aubin-des-Ormeaux","_id":2981568,"coord":{"lon":-1.04274,"lat":46.992378}},
{"country":"FR","name":"Saint-Aubin-des-Ormeaux","_id":6445176,"coord":{"lon":-1.05,"lat":46.98333}},
{"country":"FR","name":"Saint-Aubin-des-Préaux","_id":2981567,"coord":{"lon":-1.50822,"lat":48.804661}},
{"country":"FR","name":"Saint-Aubin-des-Préaux","_id":6435565,"coord":{"lon":-1.5,"lat":48.799999}},
{"country":"FR","name":"Saint-Aubin-de-Terregatte","_id":2981566,"coord":{"lon":-1.29993,"lat":48.57605}},
{"country":"FR","name":"Saint-Aubin-de-Terregatte","_id":6435566,"coord":{"lon":-1.3,"lat":48.583328}},
{"country":"FR","name":"Saint-Aubin-du-Cormier","_id":2981565,"coord":{"lon":-1.40252,"lat":48.25843}},
{"country":"FR","name":"Saint-Aubin-du-Cormier","_id":6432812,"coord":{"lon":-1.4,"lat":48.26667}},
{"country":"FR","name":"Saint-Aubin-du-Perron","_id":2981561,"coord":{"lon":-1.3697,"lat":49.143398}},
{"country":"FR","name":"Saint-Aubin-du-Perron","_id":6435567,"coord":{"lon":-1.36667,"lat":49.150002}},
{"country":"FR","name":"Saint-Aubin-en-Bray","_id":2981558,"coord":{"lon":1.87782,"lat":49.420509}},
{"country":"FR","name":"Saint-Aubin-en-Bray","_id":6438944,"coord":{"lon":1.8791,"lat":49.419899}},
{"country":"FR","name":"Saint-Aubin","_id":2981609,"coord":{"lon":5.32666,"lat":47.03336}},
{"country":"FR","name":"Saint-Aubin","_id":2981613,"coord":{"lon":-0.69655,"lat":43.71167}},
{"country":"FR","name":"Saint-Aubin","_id":6433735,"coord":{"lon":5.33333,"lat":47.033329}},
{"country":"FR","name":"Saint-Aubin","_id":6616738,"coord":{"lon":-0.6958,"lat":43.711201}},
{"country":"MU","name":"Saint Aubin","_id":934056,"coord":{"lon":57.541389,"lat":-20.491671}},
{"country":"FR","name":"Saint-Aubin-Lébizay","_id":2981553,"coord":{"lon":0.00252,"lat":49.203812}},
{"country":"FR","name":"Saint-Aubin-le-Cloud","_id":2981551,"coord":{"lon":-0.35258,"lat":46.65308}},
{"country":"FR","name":"Saint-Aubin-le-Cloud","_id":6444190,"coord":{"lon":-0.35,"lat":46.650002}},
{"country":"FR","name":"Saint-Aubin-les-Elbeuf","_id":2981547,"coord":{"lon":1.01056,"lat":49.3036}},
{"country":"FR","name":"Saint-Aubin-lès-Elbeuf","_id":6443430,"coord":{"lon":1.01667,"lat":49.299999}},
{"country":"FR","name":"Saint-Aubin-Routot","_id":2981542,"coord":{"lon":0.32602,"lat":49.523411}},
{"country":"FR","name":"Saint-Aubin-Routot","_id":6443432,"coord":{"lon":0.33333,"lat":49.51667}},
{"country":"CH","name":"Saint-Aubin-Sauges","_id":2658880,"coord":{"lon":6.77251,"lat":46.894192}},
{"country":"CH","name":"Saint-Aubin-Sauges","_id":7287020,"coord":{"lon":6.75444,"lat":46.907089}},
{"country":"FR","name":"Saint-Aubin-sur-Algot","_id":2981539,"coord":{"lon":0.08864,"lat":49.1301}},
{"country":"FR","name":"Saint-Aubin-sur-Gaillon","_id":2981538,"coord":{"lon":1.32914,"lat":49.146999}},
{"country":"FR","name":"Saint-Aubin-sur-Gaillon","_id":6430563,"coord":{"lon":1.33333,"lat":49.150002}},
{"country":"FR","name":"Saint-Aubin-sur-Mer","_id":2981536,"coord":{"lon":-0.38696,"lat":49.327862}},
{"country":"FR","name":"Saint-Aubin-sur-Mer","_id":6427419,"coord":{"lon":-0.4,"lat":49.333328}},
{"country":"FR","name":"Saint-Aubin-sur-Scie","_id":2981533,"coord":{"lon":1.06823,"lat":49.87162}},
{"country":"FR","name":"Saint-Aubin-sur-Scie","_id":6443434,"coord":{"lon":1.06667,"lat":49.866669}},
{"country":"US","name":"Saint Augusta","_id":5044315,"coord":{"lon":-94.154152,"lat":45.47858}},
{"country":"US","name":"Saint Augusta","_id":5048493,"coord":{"lon":-94.198036,"lat":45.458302}},
{"country":"CA","name":"Saint-Augustin-de-Desmaures","_id":7535681,"coord":{"lon":-71.451309,"lat":46.740639}},
{"country":"US","name":"Saint Augustine Beach","_id":4170896,"coord":{"lon":-81.26535,"lat":29.850531}},
{"country":"US","name":"Saint Augustine","_id":4170894,"coord":{"lon":-81.314522,"lat":29.89469}},
{"country":"US","name":"Saint Augustine Shores","_id":4170908,"coord":{"lon":-81.310349,"lat":29.810801}},
{"country":"US","name":"Saint Augustine South","_id":7223060,"coord":{"lon":-81.314484,"lat":29.842489}},
{"country":"FR","name":"Saint-Augustin","_id":2981528,"coord":{"lon":3.03016,"lat":48.783329}},
{"country":"CA","name":"Saint-Augustin","_id":6137462,"coord":{"lon":-58.650169,"lat":51.226021}},
{"country":"FR","name":"Saint-Augustin","_id":6443818,"coord":{"lon":3.03333,"lat":48.783329}},
{"country":"FR","name":"Saint-Aulaye","_id":2981522,"coord":{"lon":0.13333,"lat":45.200001}},
{"country":"FR","name":"Saint-Aulaye","_id":6429516,"coord":{"lon":0.13333,"lat":45.200001}},
{"country":"FR","name":"Saint-Aunes","_id":2981521,"coord":{"lon":3.96583,"lat":43.640831}},
{"country":"FR","name":"Saint-Aunès","_id":6432615,"coord":{"lon":3.96667,"lat":43.633331}},
{"country":"FR","name":"Saint-Aupre","_id":2981519,"coord":{"lon":5.66667,"lat":45.383331}},
{"country":"FR","name":"Saint-Aupre","_id":6614193,"coord":{"lon":5.6708,"lat":45.399601}},
{"country":"GB","name":"Saint Austell","_id":2638853,"coord":{"lon":-4.76583,"lat":50.338329}},
{"country":"FR","name":"Saint-Austremoine","_id":2981518,"coord":{"lon":3.37039,"lat":45.120689}},
{"country":"FR","name":"Saint-Austremoine","_id":6612543,"coord":{"lon":3.38333,"lat":45.116669}},
{"country":"FR","name":"Saint-Ave","_id":2981515,"coord":{"lon":-2.74648,"lat":47.690849}},
{"country":"FR","name":"Saint-Avé","_id":6437369,"coord":{"lon":-2.75,"lat":47.683331}},
{"country":"FR","name":"Saint-Avertin","_id":2981512,"coord":{"lon":0.73993,"lat":47.363571}},
{"country":"FR","name":"Saint-Avertin","_id":6433100,"coord":{"lon":0.73333,"lat":47.366669}},
{"country":"FR","name":"Saint-Avit-de-Soulège","_id":2981501,"coord":{"lon":0.15,"lat":44.633331}},
{"country":"FR","name":"Saint-Avit-de-Soulège","_id":6432372,"coord":{"lon":0.1268,"lat":44.812801}},
{"country":"FR","name":"Saint-Avit-de-Vialard","_id":2981499,"coord":{"lon":0.86761,"lat":44.943649}},
{"country":"FR","name":"Saint-Avit-de-Vialard","_id":6429517,"coord":{"lon":0.88333,"lat":44.950001}},
{"country":"FR","name":"Saint-Avit","_id":2981503,"coord":{"lon":2.53333,"lat":45.866669}},
{"country":"FR","name":"Saint-Avit","_id":2981508,"coord":{"lon":0.21262,"lat":44.56778}},
{"country":"FR","name":"Saint-Avit","_id":6440159,"coord":{"lon":2.53333,"lat":45.866669}},
{"country":"FR","name":"Saint-Avit","_id":6614428,"coord":{"lon":0.2132,"lat":44.568001}},
{"country":"FR","name":"Saint-Avit-Sénieur","_id":2981493,"coord":{"lon":0.81658,"lat":44.775051}},
{"country":"FR","name":"Saint-Avit-Sénieur","_id":6429519,"coord":{"lon":0.81667,"lat":44.76667}},
{"country":"FR","name":"Saint-Avold","_id":2981492,"coord":{"lon":6.70064,"lat":49.102699}},
{"country":"FR","name":"Saint-Avold","_id":6454369,"coord":{"lon":6.7,"lat":49.099998}},
{"country":"FR","name":"Saint-Ay","_id":2981488,"coord":{"lon":1.75137,"lat":47.858898}},
{"country":"FR","name":"Saint-Ay","_id":6434701,"coord":{"lon":1.75,"lat":47.849998}},
{"country":"FR","name":"Saint-Babel","_id":2981483,"coord":{"lon":3.30079,"lat":45.59634}},
{"country":"FR","name":"Saint-Babel","_id":6440160,"coord":{"lon":3.3,"lat":45.599998}},
{"country":"FR","name":"Saint-Baldoph","_id":2981481,"coord":{"lon":5.95217,"lat":45.5312}},
{"country":"FR","name":"Saint-Baldoph","_id":6442862,"coord":{"lon":5.95,"lat":45.533329}},
{"country":"FR","name":"Saint-Barnabe","_id":2981473,"coord":{"lon":-2.70483,"lat":48.137119}},
{"country":"FR","name":"Saint-Barnabé","_id":6612343,"coord":{"lon":-2.7,"lat":48.133331}},
{"country":"FR","name":"Saint-Barthélemy-d'Agenais","_id":2981458,"coord":{"lon":0.36667,"lat":44.51667}},
{"country":"FR","name":"Saint-Barthélemy-d'Agenais","_id":6614263,"coord":{"lon":0.36667,"lat":44.51667}},
{"country":"FR","name":"Saint-Barthélemy-de-Bellegarde","_id":2981455,"coord":{"lon":0.2,"lat":45.066669}},
{"country":"FR","name":"Saint-Barthélemy-de-Bellegarde","_id":6429520,"coord":{"lon":0.2114,"lat":45.0774}},
{"country":"FR","name":"Saint-Barthélemy-de-Bussière","_id":2981454,"coord":{"lon":0.75508,"lat":45.640251}},
{"country":"FR","name":"Saint-Barthélemy-de-Bussière","_id":6612371,"coord":{"lon":0.75,"lat":45.633331}},
{"country":"FR","name":"Saint-Barthelemy-de-Vals","_id":2981452,"coord":{"lon":4.86977,"lat":45.16729}},
{"country":"FR","name":"Saint-Barthélemy-de-Vals","_id":6430206,"coord":{"lon":4.86667,"lat":45.166672}},
{"country":"BL","name":"Saint-Barthélemy","_id":3578476,"coord":{"lon":-62.833328,"lat":17.9}},
{"country":"CA","name":"Saint-Barthélemy","_id":6137484,"coord":{"lon":-73.132439,"lat":46.183361}},
{"country":"CA","name":"Saint-Basile-le-Grand","_id":6137489,"coord":{"lon":-73.282463,"lat":45.533379}},
{"country":"FR","name":"Saint-Baudelle","_id":2981444,"coord":{"lon":-0.63728,"lat":48.280811}},
{"country":"FR","name":"Saint-Baudelle","_id":6436461,"coord":{"lon":-0.63333,"lat":48.283329}},
{"country":"FR","name":"Saint-Bauzille-de-Putois","_id":2981433,"coord":{"lon":3.7358,"lat":43.894539}},
{"country":"FR","name":"Saint-Bauzille-de-Putois","_id":6432618,"coord":{"lon":3.73333,"lat":43.900002}},
{"country":"FR","name":"Saint-Beauzire","_id":2981421,"coord":{"lon":3.26719,"lat":45.274948}},
{"country":"FR","name":"Saint-Beauzire","_id":6616797,"coord":{"lon":3.2678,"lat":45.275398}},
{"country":"FR","name":"Saint-Benoit-de-Carmaux","_id":2981402,"coord":{"lon":2.12911,"lat":44.050369}},
{"country":"FR","name":"Saint-Benoît-de-Carmaux","_id":6444936,"coord":{"lon":2.13333,"lat":44.049999}},
{"country":"FR","name":"Saint-Benoit","_id":2981408,"coord":{"lon":0.3419,"lat":46.55315}},
{"country":"FR","name":"Saint-Benoît","_id":6445342,"coord":{"lon":0.33333,"lat":46.549999}},
{"country":"RE","name":"Saint-Benoît","_id":6690294,"coord":{"lon":55.716671,"lat":-21.033331}},
{"country":"RE","name":"Saint-Benoit","_id":935267,"coord":{"lon":55.719372,"lat":-21.03801}},
{"country":"FR","name":"Saint-Benoit-sur-Loire","_id":2981393,"coord":{"lon":2.31274,"lat":47.805611}},
{"country":"FR","name":"Saint-Benoît-sur-Loire","_id":6434702,"coord":{"lon":2.3,"lat":47.816669}},
{"country":"FR","name":"Saint-Bérain","_id":2981391,"coord":{"lon":3.63321,"lat":45.032791}},
{"country":"FR","name":"Saint-Bérain","_id":6434401,"coord":{"lon":3.63333,"lat":45.033329}},
{"country":"FR","name":"Saint-Berain-sous-Sanvignes","_id":2981390,"coord":{"lon":4.29405,"lat":46.706779}},
{"country":"FR","name":"Saint-Berain-sous-Sanvignes","_id":6442392,"coord":{"lon":4.3,"lat":46.700001}},
{"country":"CA","name":"Saint-Bernard-de-Lacolle","_id":6137509,"coord":{"lon":-73.415863,"lat":45.083382}},
{"country":"PH","name":"Saint Bernard","_id":1691045,"coord":{"lon":125.183327,"lat":10.28333}},
{"country":"US","name":"Saint Bernard","_id":4523190,"coord":{"lon":-84.49855,"lat":39.167}},
{"country":"US","name":"Saint Bernard Parish","_id":4339526,"coord":{"lon":-89.650063,"lat":29.85021}},
{"country":"FR","name":"Saint-Beron","_id":2981384,"coord":{"lon":5.73012,"lat":45.501411}},
{"country":"FR","name":"Saint-Béron","_id":6442863,"coord":{"lon":5.71667,"lat":45.5}},
{"country":"FR","name":"Saint-Berthevin","_id":2981382,"coord":{"lon":-0.83333,"lat":48.066669}},
{"country":"FR","name":"Saint-Berthevin","_id":6617034,"coord":{"lon":-0.8254,"lat":48.0681}},
{"country":"CH","name":"Saint-Blaise","_id":2658878,"coord":{"lon":6.98472,"lat":47.013229}},
{"country":"CH","name":"Saint-Blaise","_id":7287022,"coord":{"lon":6.98902,"lat":47.028839}},
{"country":"FR","name":"Saint-Bômer-les-Forges","_id":2981358,"coord":{"lon":-0.63293,"lat":48.6441}},
{"country":"FR","name":"Saint-Bômer-les-Forges","_id":6439231,"coord":{"lon":-0.63293,"lat":48.6441}},
{"country":"US","name":"Saint Bonaventure","_id":5139399,"coord":{"lon":-78.475021,"lat":42.080341}},
{"country":"US","name":"Saint Bonifacius","_id":5044347,"coord":{"lon":-93.747459,"lat":44.905521}},
{"country":"FR","name":"Saint-Bonnet-de-Bellac","_id":2981347,"coord":{"lon":0.95511,"lat":46.167992}},
{"country":"FR","name":"Saint-Bonnet-de-Bellac","_id":6445427,"coord":{"lon":0.95,"lat":46.166672}},
{"country":"FR","name":"Saint-Bonnet-de-Mure","_id":2981338,"coord":{"lon":5.02026,"lat":45.699581}},
{"country":"FR","name":"Saint-Bonnet-de-Mure","_id":6441832,"coord":{"lon":5.03333,"lat":45.683331}},
{"country":"FR","name":"Saint-Bonnet-de-Rochefort","_id":2981337,"coord":{"lon":3.13791,"lat":46.146481}},
{"country":"FR","name":"Saint-Bonnet-de-Rochefort","_id":6425439,"coord":{"lon":3.13333,"lat":46.150002}},
{"country":"FR","name":"Saint-Bonnet-de-Salers","_id":2981336,"coord":{"lon":2.46667,"lat":45.166672}},
{"country":"FR","name":"Saint-Bonnet-de-Salers","_id":6427624,"coord":{"lon":2.46667,"lat":45.166672}},
{"country":"FR","name":"Saint-Bonnet-en-Champsaur","_id":2981355,"coord":{"lon":6.08333,"lat":44.683331}},
{"country":"FR","name":"Saint-Bonnet-en-Champsaur","_id":6615730,"coord":{"lon":6.0767,"lat":44.682301}},
{"country":"FR","name":"Saint-Bonnet","_id":2981352,"coord":{"lon":3.35,"lat":46.566669}},
{"country":"FR","name":"Saint-Bonnet-le-Bourg","_id":2981327,"coord":{"lon":3.60866,"lat":45.43399}},
{"country":"FR","name":"Saint-Bonnet-le-Bourg","_id":6440161,"coord":{"lon":3.61667,"lat":45.433331}},
{"country":"FR","name":"Saint-Bonnet-le-Chastel","_id":2981326,"coord":{"lon":3.63361,"lat":45.45079}},
{"country":"FR","name":"Saint-Bonnet-le-Chastel","_id":6440162,"coord":{"lon":3.63333,"lat":45.450001}},
{"country":"FR","name":"Saint-Bonnet-le-Chateau","_id":2981325,"coord":{"lon":4.06673,"lat":45.423382}},
{"country":"FR","name":"Saint-Bonnet-le-Château","_id":6434246,"coord":{"lon":4.06667,"lat":45.416672}},
{"country":"FR","name":"Saint-Bonnet-les-Oules","_id":2981320,"coord":{"lon":4.33145,"lat":45.5425}},
{"country":"FR","name":"Saint-Bonnet-les-Oules","_id":6434248,"coord":{"lon":4.33333,"lat":45.549999}},
{"country":"FR","name":"Saint-Bonnet-pres-Riom","_id":2981315,"coord":{"lon":3.11162,"lat":45.928951}},
{"country":"FR","name":"Saint-Bonnet-près-Riom","_id":6440165,"coord":{"lon":3.1,"lat":45.933331}},
{"country":"FR","name":"Saint-Bon-Tarentaise","_id":2981309,"coord":{"lon":6.63686,"lat":45.433731}},
{"country":"FR","name":"Saint-Bon-Tarentaise","_id":6442864,"coord":{"lon":6.63656,"lat":45.43412}},
{"country":"GB","name":"Saint Boswells","_id":2638848,"coord":{"lon":-2.6441,"lat":55.573009}},
{"country":"CH","name":"Saint-Brais","_id":2658877,"coord":{"lon":7.11368,"lat":47.306122}},
{"country":"CH","name":"Saint-Brais","_id":7287023,"coord":{"lon":7.1187,"lat":47.308769}},
{"country":"FR","name":"Saint-Branchs","_id":2981305,"coord":{"lon":0.77306,"lat":47.226551}},
{"country":"FR","name":"Saint-Branchs","_id":6433103,"coord":{"lon":0.76667,"lat":47.23333}},
{"country":"FR","name":"Saint-Brandan","_id":2981304,"coord":{"lon":-2.86875,"lat":48.390079}},
{"country":"FR","name":"Saint-Brandan","_id":6429119,"coord":{"lon":-2.86667,"lat":48.383331}},
{"country":"FR","name":"Saint-Bres","_id":2981303,"coord":{"lon":4.03105,"lat":43.667419}},
{"country":"FR","name":"Saint-Brès","_id":6614311,"coord":{"lon":4.0301,"lat":43.667099}},
{"country":"FR","name":"Saint-Brevin-les-Pins","_id":2981296,"coord":{"lon":-2.16667,"lat":47.25}},
{"country":"FR","name":"Saint-Brevin-les-Pins","_id":6613997,"coord":{"lon":-2.16667,"lat":47.25}},
{"country":"FR","name":"Saint-Briac-sur-Mer","_id":2981294,"coord":{"lon":-2.13435,"lat":48.621891}},
{"country":"FR","name":"Saint-Briac-sur-Mer","_id":6432815,"coord":{"lon":-2.1331,"lat":48.620701}},
{"country":"FR","name":"Saint-Brice-Courcelles","_id":2981284,"coord":{"lon":3.98333,"lat":49.26667}},
{"country":"FR","name":"Saint-Brice-Courcelles","_id":6616960,"coord":{"lon":3.986,"lat":49.261501}},
{"country":"FR","name":"Saint-Brice-de-Landelles","_id":2981286,"coord":{"lon":-1.15259,"lat":48.532791}},
{"country":"FR","name":"Saint-Brice-de-Landelles","_id":6612587,"coord":{"lon":-1.15,"lat":48.533329}},
{"country":"FR","name":"Saint-Brice-en-Cogles","_id":2981285,"coord":{"lon":-1.37019,"lat":48.411572}},
{"country":"FR","name":"Saint-Brice-en-Coglès","_id":6432816,"coord":{"lon":-1.3663,"lat":48.410999}},
{"country":"FR","name":"Saint-Brice","_id":2981291,"coord":{"lon":-0.28333,"lat":45.683331}},
{"country":"FR","name":"Saint-Brice","_id":2981292,"coord":{"lon":-0.14916,"lat":44.6978}},
{"country":"FR","name":"Saint-Brice","_id":6427825,"coord":{"lon":-0.28333,"lat":45.683331}},
{"country":"FR","name":"Saint-Brice","_id":6432373,"coord":{"lon":-0.1486,"lat":44.697601}},
{"country":"FR","name":"Saint-Brice-sous-Foret","_id":2981283,"coord":{"lon":2.35361,"lat":49.00132}},
{"country":"FR","name":"Saint-Brice-sous-Forêt","_id":6446326,"coord":{"lon":2.36667,"lat":49}},
{"country":"FR","name":"Saint-Brice-sur-Vienne","_id":2981281,"coord":{"lon":0.95594,"lat":45.878521}},
{"country":"FR","name":"Saint-Brice-sur-Vienne","_id":6445428,"coord":{"lon":0.95,"lat":45.883331}},
{"country":"FR","name":"Saint-Brieuc-des-Iffs","_id":2981276,"coord":{"lon":-1.85061,"lat":48.291729}},
{"country":"FR","name":"Saint-Brieuc-des-Iffs","_id":6432817,"coord":{"lon":-1.85,"lat":48.299999}},
{"country":"FR","name":"Saint-Brieuc","_id":2981280,"coord":{"lon":-2.78333,"lat":48.51667}},
{"country":"FR","name":"Saint-Brieuc","_id":6453805,"coord":{"lon":-2.78333,"lat":48.51667}},
{"country":"FR","name":"Saint-Bris-le-Vineux","_id":2981274,"coord":{"lon":3.64922,"lat":47.743961}}
]